{"business_id": "5UmKMjUEUNdYWqANhGckJw", "full_address": "4734 Lebanon Church Rd\nDravosburg, PA 15034", "hours": {"Friday": {"close": "21:00", "open": "11:00"}, "Tuesday": {"close": "21:00", "open": "11:00"}, "Thursday": {"close": "21:00", "open": "11:00"}, "Wednesday": {"close": "21:00", "open": "11:00"}, "Monday": {"close": "21:00", "open": "11:00"}}, "open": true, "categories": ["Fast Food", "Restaurants"], "city": "Dravosburg", "review_count": 7, "name": "Mr Hoagie", "neighborhoods": [], "longitude": -79.9007057, "state": "PA", "stars": 3.5, "latitude": 40.3543266, "attributes": {"Take-out": true, "Drive-Thru": false, "Good For": {"dessert": false, "latenight": false, "lunch": false, "dinner": false, "brunch": false, "breakfast": false}, "Caters": false, "Noise Level": "average", "Takes Reservations": false, "Delivery": false, "Ambience": {"romantic": false, "intimate": false, "classy": false, "hipster": false, "divey": false, "touristy": false, "trendy": false, "upscale": false, "casual": false}, "Parking": {"garage": false, "street": false, "validated": false, "lot": false, "valet": false}, "Has TV": false, "Outdoor Seating": false, "Attire": "casual", "Alcohol": "none", "Waiter Service": false, "Accepts Credit Cards": true, "Good for Kids": true, "Good For Groups": true, "Price Range": 1}, "type": "business"}
{"business_id": "UsFtqoBl7naz8AVUBZMjQQ", "full_address": "202 McClure St\nDravosburg, PA 15034", "hours": {}, "open": true, "categories": ["Nightlife"], "city": "Dravosburg", "review_count": 5, "name": "Clancy's Pub", "neighborhoods": [], "longitude": -79.8868138, "state": "PA", "stars": 3.0, "latitude": 40.3505527, "attributes": {"Happy Hour": true, "Accepts Credit Cards": true, "Good For Groups": true, "Outdoor Seating": false, "Price Range": 1}, "type": "business"}
{"business_id": "cE27W9VPgO88Qxe4ol6y_g", "full_address": "1530 Hamilton Rd\nBethel Park, PA 15234", "hours": {}, "open": false, "categories": ["Active Life", "Mini Golf", "Golf"], "city": "Bethel Park", "review_count": 5, "name": "Cool Springs Golf Center", "neighborhoods": [], "longitude": -80.0146597, "state": "PA", "stars": 2.5, "latitude": 40.3541155, "attributes": {"Good for Kids": true}, "type": "business"}